{
"type": "FeatureCollection",
"data_type":"Dataset",
"metadata":{
    "title":"Markets ",
    "description":"This dataset contains the location of neighborhood Markets as of Spring 2015.",
    "extent":[-82.7867,36.3145,-76.1781,38.3637],
    "geometry_types":["point"],
    "links":{
        "kml":"//newmaps.uky.edu/sites/default/files/Markets.kml",
        "zip":"//newmaps.uky.edu/sites/default/files/Markets.zip",
        "geoJSON":"//newmaps.uky.edu/sites/default/files/markets.geojson_0"
    }
},

"crs": { "type": "name", "properties": { "name": "urn:ogc:def:crs:OGC:1.3:CRS84" } },
                                                                                
"features": [
{ "type": "Feature", "properties": { "Name": "George's Deli", "Full_ Addr": "161 North Limestone St, Lexington, KY 40507, United States", "Street_Add": "161 North Limestone", "Zipcode": 40507, "Phone Numb": "(859) 254-6741", "Latitude": 38.047632, "Longitude": -84.495641, "Hours": null, "Accept Foo": "Unknown" }, "geometry": { "type": "Point", "coordinates": [ -84.495641, 38.047632 ] } },
{ "type": "Feature", "properties": { "Name": "Town Branch Market", "Full_ Addr": "233 E Main St, Lexington, KY 40507, United States", "Street_Add": "233 E Main St", "Zipcode": 40507, "Phone Numb": "(859) 280-2122", "Latitude": 38.044280, "Longitude": -84.494297, "Hours": "7:30am-6:00pm week, 9:00am-3:00pm Sat., closed Sunday", "Accept Foo": "Unknown" }, "geometry": { "type": "Point", "coordinates": [ -84.494297, 38.04428 ] } },
{ "type": "Feature", "properties": { "Name": "Ohio St Market", "Full_ Addr": "368 Ohio St, Lexington, KY 40508, United States", "Street_Add": "368 Ohio St", "Zipcode": 40508, "Phone Numb": "(859) 252-9758", "Latitude": 38.046802, "Longitude": -84.486159, "Hours": null, "Accept Foo": "Unknown" }, "geometry": { "type": "Point", "coordinates": [ -84.486159, 38.046802 ] } },
{ "type": "Feature", "properties": { "Name": "Our Market", "Full_ Addr": "201 East 5th St, Lexington, KY 40508, United States", "Street_Add": "201 East 5th", "Zipcode": 40508, "Phone Numb": "(859) 231-3728", "Latitude": 38.051041, "Longitude": -84.486478, "Hours": null, "Accept Foo": "Unknown" }, "geometry": { "type": "Point", "coordinates": [ -84.486478, 38.051041 ] } },
{ "type": "Feature", "properties": { "Name": "F & D Market", "Full_ Addr": "573 Elm Tree Lane, Lexington, KY 40508, United States", "Street_Add": "573 Elm Tree Lane", "Zipcode": 40508, "Phone Numb": "(859) 225-3151", "Latitude": 38.050428, "Longitude": -84.483279, "Hours": "8:00am-7:00pm week, 9:00am-2:00pm Sun.", "Accept Foo": "Yes" }, "geometry": { "type": "Point", "coordinates": [ -84.483279, 38.050428 ] } },
{ "type": "Feature", "properties": { "Name": "Griffith's Market", "Full_ Addr": "427 East 6th St, Lexington, KY 40508 United States", "Street_Add": "427 East 6th St", "Zipcode": 40508, "Phone Numb": "(859) 254-7841", "Latitude": 38.049083, "Longitude": -84.480393, "Hours": "9:00am-9:00pm week, 9:00am-6:00pm weekends", "Accept Foo": "Yes" }, "geometry": { "type": "Point", "coordinates": [ -84.480393, 38.049083 ] } },
{ "type": "Feature", "properties": { "Name": "Subcity Market", "Full_ Addr": "500 East 7th St, Lexington, KY 40505, United States", "Street_Add": "500 East 7th St", "Zipcode": 40508, "Phone Numb": "(859) 233-2296", "Latitude": 38.049392, "Longitude": -84.477535, "Hours": "8:00am-11:00pm Mon to Thurs, 10:00am-1:00am Fri. to Sat, 1:00pm-9:00pm Sun", "Accept Foo": "No" }, "geometry": { "type": "Point", "coordinates": [ -84.477535, 38.049392 ] } },
{ "type": "Feature", "properties": { "Name": "Neighborhood Grocery", "Full_ Addr": "215 East 7th St, Lexington, KY 40508, United States", "Street_Add": "215 East 7th St", "Zipcode": 40508, "Phone Numb": "(859) 231-1140", "Latitude": 38.053172, "Longitude": -84.481443, "Hours": "Early -8:00pm Mon to Sat, closed Sunday", "Accept Foo": "Yes" }, "geometry": { "type": "Point", "coordinates": [ -84.481443, 38.053172 ] } },
{ "type": "Feature", "properties": { "Name": "Progress Market", "Full_ Addr": "600 North Limestone St, Lexington, KY 40508, United States", "Street_Add": "600 North Limestone St", "Zipcode": 40508, "Phone Numb": "(859) 254-3381", "Latitude": 38.053804, "Longitude": -84.485930, "Hours": "9:ooam-9:00pm weekly", "Accept Foo": "Yes" }, "geometry": { "type": "Point", "coordinates": [ -84.48593, 38.053804 ] } },
{ "type": "Feature", "properties": { "Name": "Mini Mart", "Full_ Addr": "705 E Loudon Ave, Lexington, KY 40505", "Street_Add": "705 E Loudon Ave", "Zipcode": 40505, "Phone Numb": "(859) 225-0727", "Latitude": 38.047972, "Longitude": -84.468706, "Hours": null, "Accept Foo": "Unknown" }, "geometry": { "type": "Point", "coordinates": [ -84.468706, 38.047972 ] } },
{ "type": "Feature", "properties": { "Name": "Marathon Foodmart", "Full_ Addr": "647 W Main St, Lexington, KY 40508, United States", "Street_Add": "647 W Main St", "Zipcode": 40508, "Phone Numb": "(859) 252-0904", "Latitude": 38.052891, "Longitude": -84.503916, "Hours": null, "Accept Foo": "Unknown" }, "geometry": { "type": "Point", "coordinates": [ -84.503916, 38.052891 ] } },
{ "type": "Feature", "properties": { "Name": "C & P Market", "Full_ Addr": "1000 Manchester St, Lexington, KY 40508, United States", "Street_Add": "1000 Manchester St", "Zipcode": 40508, "Phone Numb": "(859) 231-9040", "Latitude": 38.053390, "Longitude": -84.511571, "Hours": "5:30am-7:00pm week", "Accept Foo": "Yes" }, "geometry": { "type": "Point", "coordinates": [ -84.511571, 38.05339 ] } },
{ "type": "Feature", "properties": { "Name": "Pak-N-Save Market", "Full_ Addr": "503 East 3rd St, Lexington, KY 40508, United States", "Street_Add": "503 East 3rd St", "Zipcode": 40508, "Phone Numb": "(859) 252-0051", "Latitude": 38.044619, "Longitude": -84.485084, "Hours": "6:00am-8:00pm week", "Accept Foo": "Yes" }, "geometry": { "type": "Point", "coordinates": [ -84.485084, 38.044619 ] } },
{ "type": "Feature", "properties": { "Name": "M & M Grocery", "Full_ Addr": "398 East 5th St, Lexington KY 40508, United States", "Street_Add": "398 East 5th St", "Zipcode": 40508, "Phone Numb": "(859) 252-8866", "Latitude": 38.047868, "Longitude": -84.483769, "Hours": "8:00am-8:00pm weekly", "Accept Foo": "Yes" }, "geometry": { "type": "Point", "coordinates": [ -84.483769, 38.047868 ] } }
]
}
